[
  {
    "id": 145,
    "name": "macho temple",
    "imageUrl": "https://raw.githubusercontent.com/maruthmiranda/miranda.json/master/macho.jpg",
    "price": 250,
    "priceCurrency": "₱",
    "lat": 16.568704,
    "lng": 120.322061
  },
  {
    "id": 148,
    "name": "thunderbird",
    "imageUrl": "https://raw.githubusercontent.com/jethrew/ja/master/qwert/h2.jpg",
    "price": 200,
    "priceCurrency": "₱",
    "lat": 16.544041,
    "lng": 120.324377
  },
  {
    "id": 201,
    "name": "Pindangan",
    "imageUrl": "https://raw.githubusercontent.com/jethrew/ja/master/qwert/h3.jpg",
    "price": 200,
    "priceCurrency": "₱",
    "lat": 16.336609,
    "lng": 120.478857
  },
  {
    "id": 205,
    "name": "botanical garden",
    "imageUrl": "https://raw.githubusercontent.com/jethrew/ja/master/qwert/h4.jpg",
    "price": 300,
    "priceCurrency": "₱",
    "lat": 16.657479,
    "lng": 120.320558
  },
  {
    "id": 210,
    "name": "halo-halo de iloko",
    "imageUrl": "https://raw.githubusercontent.com/jethrew/ja/master/qwert/h5.jpg",
    "price": 400,
    "priceCurrency": "₱",
    "lat": 16.608991,
    "lng": 120.286336
  }
  {
    "id": 148,
    "name": "Grape Farm",
    "imageUrl": "https://raw.githubusercontent.com/jethrew/ja/master/qwert/h2.jpg",
    "price": 200,
    "priceCurrency": "₱",
    "lat": 16.544041,
    "lng": 120.324377
  },
]
